City,Population,Latitude,Longitude
Ho Chi Minh City,8146300,10.776889,106.700806
Ha Noi,7216000,21.028472,105.854167
Hai Phong,1963300,20.865139,106.683833
Da Nang,1028000,16.066667,108.233333
Can Tho,1248000,10.033333,105.783333